{
  "reportAnimals": [
    {
      "title": "Perro perdido en Junín",
      "description": "Este perro estuvo afuera de mi casa llorando toda la noche, parece que sí tiene dueño porque se lo ve cuidado. No tiene collar.",
      "images": {
        "urls": [
          "./images/reports/dog1.jpeg"
        ]
      },
      "species": "Perro",
      "sex": "Macho",
      "size": "Mediano",
      "location": {
        "street": "Av. Libertador",
        "number": 123,
        "province": "Buenos Aires",
        "locality": "Junín",
        "postalCode": 6000
      },
      "id": "d827"
    },
    {
      "title": "Gata perdida",
      "description": "Una gata ha estado rondando mi jardín, parece asustada. No tiene collar, la resguardé en mi patio cerrado esperando dar con sus dueños.",
      "images": {
        "urls": [
          "./images/reports/cat1.jpeg"
        ]
      },
      "species": "Gato",
      "sex": "Hembra",
      "size": "Pequeño",
      "location": {
        "street": "Calle 50",
        "number": 456,
        "province": "San Juan",
        "locality": "Pocito",
        "postalCode": 1900
      },
      "id": "579d"
    },
    {
      "title": "Gato perdido en Lavalle",
      "description": "Un gato ha estado rondando cerca de casa, parece perdido.  Lo resguardé en casa esperando a sus papis.",
      "images": {
        "urls": [
          "./images/reports/cat2.jpeg"
        ]
      },
      "species": "Gato",
      "sex": "Macho",
      "size": "Pequeño",
      "location": {
        "street": "Calle 50",
        "number": 456,
        "province": "Mendoza",
        "locality": "Lavalle",
        "postalCode": 1900
      },
      "id": "55de"
    },
    {
      "title": "Perrita perdida en Nogolí, San Luis",
      "description": "Esta perrita apareció en mi vereda. Parece abandonada, tiene marca de collar pero no lo lleva encima.",
      "images": {
        "urls": [
          "./images/reports/dog2.jpg"
        ]
      },
      "species": "Perro",
      "sex": "Hembra",
      "size": "Pequeño",
      "location": {
        "street": "Antartida Argentina",
        "number": 123,
        "province": "San Luis",
        "locality": "Nogolí",
        "postalCode": 6000
      },
      "id": "d091"
    },
    {
      "title": "Gata encontrada en La Plata",
      "description": "Gata encontrada cerca de un parque, es muy amigable y dócil. Pelaje negro con blanco, parece estar buscando a su dueño.",
      "images": {
        "urls": [
          "./images/reports/cat3.jpg"
        ]
      },
      "species": "Gato",
      "sex": "Hembra",
      "size": "Pequeño",
      "location": {
        "street": "Calle 7",
        "number": 456,
        "province": "Buenos Aires",
        "locality": "La Plata",
        "postalCode": 1900
      },
      "id": "d652"
    },
    {
      "title": "Perra perdida en Rosario",
      "description": "Perra blanca encontrada caminando por el barrio, parece perdida. No tiene collar, de tamaño grande y tranquila.",
      "images": {
        "urls": [
          "./images/reports/dog3.jpg"
        ]
      },
      "species": "Perro",
      "sex": "Hembra",
      "size": "Grande",
      "location": {
        "street": "Calle Córdoba",
        "number": 789,
        "province": "Santa Fe",
        "locality": "Rosario",
        "postalCode": 2000
      },
      "id": "3417"
    },
    {
      "title": "Perro encontrado en Bariloche",
      "description": "Este perro grande y peludo fue encontrado en la ruta cerca de Bariloche. Parece estar acostumbrado al frío y es muy amigable.",
      "images": {
        "urls": [
          "./images/reports/dog4.jpg"
        ]
      },
      "species": "Perro",
      "sex": "Macho",
      "size": "Grande",
      "location": {
        "street": "Ruta 40",
        "number": 1122,
        "province": "Río Negro",
        "locality": "San Carlos de Bariloche",
        "postalCode": 8400
      },
      "id": "d46d"
    },
    {
      "title": "Gato visto en Mendoza",
      "description": "Este gato fue visto en el centro de Mendoza. Es de pelaje marrón y está bien cuidado. Parece doméstico y está perdido.",
      "images": {
        "urls": [
          "./images/reports/cat4.jpg"
        ]
      },
      "species": "Gato",
      "sex": "Macho",
      "size": "Pequeño",
      "location": {
        "street": "Calle San Martín",
        "number": 101,
        "province": "Mendoza",
        "locality": "Mendoza",
        "postalCode": 5500
      },
      "id": "121b"
    },
    {
      "title": "Perra perdida en Córdoba",
      "description": "Esta perra estuvo rondando por el barrio desde hace unos días. Es de tamaño pequeño, con pelaje blanco y marrón, muy amigable.",
      "images": {
        "urls": [
          "./images/reports/dog5.jpeg"
        ]
      },
      "species": "Perro",
      "sex": "Hembra",
      "size": "Pequeño",
      "location": {
        "street": "Av. Colón",
        "number": 333,
        "province": "Córdoba",
        "locality": "Córdoba",
        "postalCode": 5000
      },
      "id": "a675"
    },
    {
      "title": "Gato perdido en Salta",
      "description": "Se perdió mi gatito hace 2 días. Es un siamés de ojos azules, muy manso. Si alguien lo vio, por favor contácteme.",
      "images": {
        "urls": [
          "./images/reports/cat5.jpeg"
        ]
      },
      "species": "Gato",
      "sex": "Macho",
      "size": "Pequeño",
      "location": {
        "street": "Calle Güemes",
        "number": 555,
        "province": "Salta",
        "locality": "Salta",
        "postalCode": 4400
      },
      "id": "8b3d"
    },
    {
      "id": "ef7a",
      "title": "asdadasd",
      "description": "asdkajsdoiajdoai doajdaod jaojd91198 18d 19d2ud1 d",
      "images": {},
      "species": "dog",
      "sex": "macho",
      "location": {
        "street": "General Rivas",
        "number": 4891,
        "province": "buenos_aires",
        "locality": "González Catán",
        "postalCode": 1759
      }
    },
    {
      "id": "13a1",
      "title": "sdadasd",
      "description": "asdaioshdaod haiodjaosjd",
      "images": {},
      "species": "dog",
      "sex": "macho",
      "location": {
        "street": "General Rivas",
        "number": 4891,
        "province": "corrientes",
        "locality": "Gonzalez Catan",
        "postalCode": 1759
      }
    },
    {
      "id": "fd0e",
      "title": "sadaksdjaodjaoids",
      "description": "asdajsdhasudha dhasid haisdhiuhadi ahdd91hd1989d 12",
      "images": {},
      "species": "dog",
      "sex": "macho",
      "location": {
        "street": "General Rivas",
        "number": 4891,
        "province": "buenos_aires",
        "locality": "González Catán",
        "postalCode": 1759
      }
    }
  ]
}